City_ID,City,Lat,Lng,Max Temp,Humidity,Cloudiness,Wind Speed,Country,Date
0,bethel,41.3712,-73.414,302.39,62,0,3.09,US,1689888008
1,cochrane,51.1834,-114.4687,300.88,39,0,6.17,CA,1689888007
2,adamstown,-25.066,-130.1015,295.16,87,100,17.25,PN,1689888009
3,west island,-12.1568,96.8225,298.14,73,40,5.66,CC,1689888009
4,invercargill,-46.4,168.35,273.16,99,6,0.89,NZ,1689888009
5,hadibu,12.65,54.0333,298.23,80,74,8.46,YE,1689888010
6,tiksi,71.6872,128.8694,280.44,63,26,7.13,RU,1689888010
7,dudinka,69.4058,86.1778,289.61,98,54,4.13,RU,1689888015
8,lubang,13.8584,120.124,302.08,72,100,4.59,PH,1689888017
9,pinarbasi,38.7229,36.3931,290.17,51,0,0.6,TR,1689888017
10,tura,25.5198,90.2201,296.83,98,100,1.69,IN,1689888017
11,college,64.8569,-147.8028,292.08,91,100,2.06,US,1689888018
12,waitangi,-43.9535,-176.5597,280.83,94,99,0.89,NZ,1689888018
13,nema,57.5067,50.5011,286.19,95,29,4.86,RU,1689888018
14,ancud,-41.8697,-73.8203,284.1,89,46,8.59,CL,1689888019
15,port elizabeth,-33.918,25.5701,285.31,58,40,5.66,ZA,1689888019
16,grytviken,-54.2811,-36.5092,270.45,86,97,1.75,GS,1689888019
17,bredasdorp,-34.5322,20.0403,282.14,75,0,4.86,ZA,1689888020
18,hermanus,-34.4187,19.2345,282.48,79,0,3.73,ZA,1689888020
19,aydarken,39.9443,71.3429,291.86,53,18,0.7,KG,1689888021
20,jamestown,42.097,-79.2353,299.92,65,75,2.57,US,1689888022
21,ust-nera,64.5667,143.2,297.71,42,76,2.74,RU,1689888022
22,al jawf,29.5,38.75,305.26,14,0,3.2,SA,1689888022
23,arkhangel'sk,64.5401,40.5433,288.37,96,52,4.03,RU,1689888023
24,an nimas,19.1455,42.1201,296.14,31,99,2.48,SA,1689888023
25,kununurra,-15.7667,128.7333,287.14,77,58,1.03,AU,1689888024
26,ulysses,37.5814,-101.3552,305.17,55,40,5.14,US,1689888024
27,bilibino,68.0546,166.4372,289.91,59,89,1.24,RU,1689888025
28,port mathurin,-19.6833,63.4167,296.42,68,8,7.82,MU,1689888025
29,khalkhal,37.6189,48.5258,290.82,72,61,2.66,IR,1689888025
30,hami,42.8,93.45,304.15,20,100,10.21,CN,1689888026
31,hamilton,39.1834,-84.5333,305.2,66,40,4.63,US,1689887857
32,ridgecrest,35.6225,-117.6709,315.08,16,3,1.34,US,1689888026
33,whitehorse,60.7161,-135.0538,297.09,38,75,3.6,CA,1689888027
34,san luis,-33.295,-66.3356,289.78,36,91,2.45,AR,1689888027
35,ghadamis,30.1337,9.5007,308.58,11,0,3.07,LY,1689888027
36,bardai,11.65,7.2333,297.93,78,100,4.38,NG,1689888028
37,albany,42.6001,-73.9662,303.4,42,34,0.89,US,1689887740
38,daru,-9.0763,143.2092,298.0,78,93,4.99,PG,1689888029
39,laascaanood,8.4774,47.3597,301.97,37,74,10.58,SO,1689888029
40,hualien city,23.9769,121.6044,299.97,83,100,2.38,TW,1689888029
41,iqaluit,63.7506,-68.5145,278.0,100,100,3.6,CA,1689888030
42,thompson,55.7435,-97.8558,300.24,26,40,5.14,CA,1689888030
43,san antonio de pale,-1.4014,5.6325,296.89,80,54,5.2,GQ,1689888031
44,san patricio,28.017,-97.5169,311.55,40,3,7.08,US,1689888031
45,weno,7.4515,151.8468,301.47,79,97,5.26,FM,1689888031
46,udachny,66.4167,112.4,288.76,64,84,0.24,RU,1689888032
47,kristiansund,63.1115,7.732,286.51,76,100,2.06,NO,1689888032
48,afaahiti,-17.75,-149.2833,298.08,64,21,8.09,PF,1689888033
49,nakasongola,1.3089,32.4564,291.78,60,54,1.74,UG,1689888033
50,qaqortoq,60.7167,-46.0333,279.34,98,100,3.38,GL,1689888034
51,nalgonda,17.05,79.2667,298.27,77,100,8.96,IN,1689888034
52,lisala,2.15,21.5167,296.82,72,7,0.64,CD,1689888035
53,holualoa,19.6228,-155.9522,299.14,87,100,5.66,US,1689887844
54,kuta,-8.7233,115.1723,297.12,83,40,0.51,ID,1689888035
55,utrik,11.2278,169.8474,301.68,80,75,8.53,MH,1689888035
56,morococha,-11.5997,-76.1411,281.39,39,43,6.9,PE,1689888036
57,prince george,53.9166,-122.753,303.85,32,0,4.12,CA,1689888036
58,melito di porto salvo,37.9222,15.7714,303.26,30,0,5.09,IT,1689888036
59,saipan,15.1355,145.701,301.84,100,0,4.63,MP,1689888037
60,olonkinbyen,70.9221,-8.7187,278.77,82,100,1.23,SJ,1689888037
61,ushuaia,-54.8,-68.3,272.96,86,100,1.54,AR,1689888037
62,napanee,44.2501,-76.9494,300.69,44,55,3.74,CA,1689888038
63,ilulissat,69.2167,-51.1,282.16,87,75,3.6,GL,1689888038
64,nadym,65.5333,72.5167,293.51,66,82,3.74,RU,1689888038
65,blackmans bay,-43.0167,147.3167,276.77,90,26,2.93,AU,1689888039
66,nova vicosa,-17.8919,-39.3719,295.76,86,100,7.03,BR,1689887991
67,kalabo,-14.97,22.6814,290.75,33,48,2.42,ZM,1689888039
68,edinburgh of the seven seas,-37.0676,-12.3116,284.89,59,24,9.96,SH,1689888040
69,longyearbyen,78.2186,15.6401,285.06,66,20,9.77,SJ,1689888040
70,alofi,-19.0595,-169.9187,297.09,69,100,6.17,NU,1689888040
71,lebu,-37.6167,-73.65,285.7,95,100,7.67,CL,1689888041
72,coahuayana de hidalgo,18.7,-103.6583,307.78,46,98,2.9,MX,1689888041
73,lensk,60.7253,114.9278,287.38,89,97,2.12,RU,1689888041
74,wailua homesteads,22.0669,-159.378,302.59,69,40,7.72,US,1689888042
75,tucurui,-3.7661,-49.6725,301.36,60,2,1.38,BR,1689888042
76,port-aux-francais,-49.35,70.2167,275.0,56,87,17.31,TF,1689888042
77,nar'yan-mar,67.6713,53.087,284.73,91,100,6.34,RU,1689888043
78,fort bragg,35.139,-79.006,306.06,57,100,3.09,US,1689888043
79,aur,8.1499,171.1687,301.64,82,93,8.87,MH,1689888043
80,medenine,33.355,10.5055,306.04,25,0,2.92,TN,1689888044
81,sogne,58.0833,7.8167,288.07,84,39,7.82,NO,1689888044
82,abepura,-2.6333,140.5833,296.6,88,40,1.03,ID,1689888044
83,carepa,7.7585,-76.6525,303.88,78,95,1.34,CO,1689888045
84,kapoeta,4.7717,33.5903,296.76,78,100,1.33,SS,1689888045
85,kapuskasing,49.4169,-82.4331,296.2,56,75,1.54,CA,1689888045
86,qarazhal,48.0078,70.7903,297.37,30,43,2.58,KZ,1689888046
87,punta arenas,-53.15,-70.9167,274.3,69,100,7.49,CL,1689888046
88,el granada,37.5027,-122.4694,308.49,68,20,6.69,US,1689888046
89,la ronge,55.1001,-105.2842,299.29,41,40,3.09,CA,1689888047
90,yulinshi,38.2906,109.7494,293.48,76,46,0.8,CN,1689888047
91,puerto natales,-51.7236,-72.4875,273.89,97,100,3.64,CL,1689888048
92,iskateley,67.6803,53.1512,284.69,91,100,6.3,RU,1689888048
93,jahanian shah,31.8055,72.2771,306.6,55,7,1.47,PK,1689888048
94,nagqu,31.5,92.0,273.91,74,0,1.25,CN,1689888048
95,ribeira grande,38.5167,-28.7,295.37,88,40,2.57,PT,1689888049
96,waingapu,-9.6567,120.2641,294.95,83,0,3.01,ID,1689888049
97,tazovsky,67.4667,78.7,290.29,75,57,4.34,RU,1689888049
98,sinabang,2.4803,96.3801,298.73,82,100,1.31,ID,1689888050
99,sierra grande,-41.606,-65.3557,286.62,46,100,8.1,AR,1689888012
100,isafjordur,66.0755,-23.124,284.6,72,41,1.06,IS,1689888050
101,rio grande,-32.035,-52.0986,288.21,93,100,4.41,BR,1689888051
102,mamit,23.9333,92.4833,294.74,98,98,1.12,IN,1689888051
103,rongelap,11.1635,166.8941,301.89,80,97,7.91,MH,1689888051
104,portland,45.5234,-122.6762,304.23,45,20,1.54,US,1689887548
105,keetmanshoop,-26.5833,18.1333,283.08,31,0,5.11,NA,1689888052
106,malabar,-33.9667,151.25,286.99,61,75,7.2,AU,1689888052
107,yellowknife,62.456,-114.3525,301.44,32,100,4.12,CA,1689888053
108,mae hong son,19.3003,97.9685,297.02,99,100,0.57,TH,1689888053
109,atafu village,-8.5421,-172.5159,301.47,77,20,4.93,TK,1689888053
110,puliyangudi,9.1667,77.4167,298.84,74,100,3.91,IN,1689888054
111,crane,31.3974,-102.3501,311.07,18,100,7.8,US,1689888054
112,georgetown,5.4112,100.3354,301.11,83,40,3.09,MY,1689888055
113,kone,-21.0595,164.8658,291.09,71,8,1.71,NC,1689888056
114,margaret river,-33.95,115.0667,287.78,69,40,9.12,AU,1689888056
115,nosy varika,-20.5833,48.5333,294.24,87,88,0.98,MG,1689888056
116,polyarnyy,69.1989,33.4478,281.74,89,100,6.42,RU,1689888057
117,chitradurga,14.2333,76.4,294.45,85,100,9.64,IN,1689888057
118,malazgirt,39.1427,42.5401,293.63,25,0,0.45,TR,1689888057
119,xining,36.6167,101.7667,282.16,81,0,1.16,CN,1689888059
120,jurilovca,44.7667,28.8667,294.28,80,97,3.06,RO,1689888059
121,puerto ayora,-0.7393,-90.3518,304.13,90,54,5.81,EC,1689888059
122,yung shue wan,22.2333,114.1167,301.9,84,100,1.6,HK,1689888060
123,hawaiian paradise park,19.5933,-154.9731,299.28,83,100,2.57,US,1689888060
124,khanty-mansiysk,61.0042,69.0019,292.21,77,0,2.0,RU,1689888060
125,kayangel,8.0823,134.7173,301.65,79,100,8.44,PW,1689888061
126,rediu,47.2167,27.5,293.11,83,0,2.68,RO,1689888061
127,ulsteinvik,62.3432,5.8487,287.46,90,100,0.45,NO,1689888061
128,flying fish cove,-10.4217,105.6791,296.97,78,75,5.66,CX,1689888062
129,fale old settlement,-9.3852,-171.2468,301.04,79,26,5.31,TK,1689888063
130,altamont,42.2068,-121.7372,306.92,27,0,3.13,US,1689888063
131,nelson bay,-32.7167,152.15,285.37,59,44,4.47,AU,1689888069
132,flin flon,54.7682,-101.865,300.06,39,75,2.06,CA,1689888069
133,alice springs,-23.7,133.8833,281.9,76,0,3.6,AU,1689887955
134,yershov,51.3513,48.2766,288.66,71,2,3.51,RU,1689888070
135,tralee,52.2704,-9.7026,284.91,87,27,3.11,IE,1689888070
136,jayapura,-2.5333,140.7,296.81,90,100,1.31,ID,1689887996
137,ushibukamachi,32.1906,130.0228,298.98,87,100,1.77,JP,1689888071
138,pimenta bueno,-11.6725,-61.1936,306.77,27,0,1.29,BR,1689888071
139,ulladulla,-35.35,150.4667,283.82,70,34,3.12,AU,1689888072
140,anzio,41.4853,12.6179,301.54,86,0,0.77,IT,1689888072
141,naze,28.3667,129.4833,297.66,85,100,3.37,JP,1689888072
142,mozarlandia,-14.7447,-50.5706,303.05,22,73,3.12,BR,1689888073
143,kolonia,50.9333,6.95,292.57,72,0,2.57,DE,1689888073
144,kodiak,57.79,-152.4072,285.88,94,0,2.06,US,1689888074
145,touros,-5.1989,-35.4608,298.28,69,18,8.02,BR,1689888074
146,les avirons,-21.2418,55.3394,292.81,73,0,2.57,RE,1689888074
147,st. john's,47.5649,-52.7093,300.81,67,40,7.72,CA,1689888047
148,talnakh,69.4865,88.3972,289.38,97,56,3.02,RU,1689888075
149,medicine hat,50.0501,-110.6683,302.71,27,20,0.89,CA,1689888076
150,stanley,54.868,-1.6985,285.4,91,86,3.42,GB,1689888076
151,inderbor,48.55,51.7833,297.22,34,79,4.28,KZ,1689888076
152,buala,-8.145,159.5921,300.34,86,80,1.33,SB,1689888077
153,papatowai,-46.5619,169.4708,278.58,71,8,8.54,NZ,1689888077
154,sayat,38.7839,63.8803,299.08,21,0,4.64,TM,1689888077
155,mount isa,-20.7333,139.5,291.02,55,40,4.12,AU,1689888078
156,island harbour,50.724,-1.2758,290.92,70,80,2.24,GB,1689888078
157,minas de marcona,-15.2119,-75.1103,290.55,63,7,3.93,PE,1689888079
158,vilyuchinsk,52.9306,158.4028,286.3,95,100,0.72,RU,1689888079
159,plettenberg bay,-34.0527,23.3716,282.56,72,0,4.35,ZA,1689888080
160,fisterra,42.9049,-9.2629,292.45,85,0,2.37,ES,1689888080
161,maralal,1.0968,36.698,290.01,74,98,0.86,KE,1689888080
162,manokwari,-0.8667,134.0833,298.71,80,14,2.1,ID,1689888081
163,khovd,48.0056,91.6419,295.22,38,100,7.3,MN,1689888081
164,queenstown,-31.8976,26.8753,276.89,81,100,4.85,ZA,1689888082
165,mount pearl,47.5166,-52.7813,300.34,68,40,7.72,CA,1689888082
166,funafuti,-8.5243,179.1942,304.15,79,75,0.51,TV,1689888083
167,carnarvon,-24.8667,113.6333,285.85,47,1,8.17,AU,1689888083
168,pangai,-19.8,-174.35,297.8,85,98,13.51,TO,1689888083
169,khandyga,62.6667,135.6,289.76,95,100,1.26,RU,1689888084
170,petropavlovsk-kamchatsky,53.0452,158.6483,285.48,100,100,1.0,RU,1689888084
171,montevideo,-34.8335,-56.1674,287.16,82,40,4.63,UY,1689887944
172,intendente alvear,-35.2338,-63.592,288.21,48,98,5.0,AR,1689888085
173,jwaneng,-24.6004,24.7303,285.4,67,8,9.22,BW,1689888085
174,coruche,38.9595,-8.5252,293.37,81,0,4.51,PT,1689888086
175,robertsport,6.7533,-11.3686,298.62,88,100,5.4,LR,1689888086
176,hilo,19.7297,-155.09,299.4,88,100,2.57,US,1689888087
177,smithers,54.7804,-127.1743,303.33,30,40,5.14,CA,1689888087
178,balqash,46.8481,74.995,298.28,35,0,3.77,KZ,1689888087
179,north battleford,52.7834,-108.2847,298.37,53,20,3.09,CA,1689888088
180,praia da vitoria,38.7333,-27.0667,295.29,94,20,2.41,PT,1689888088
181,kurchatov,51.6601,35.6521,288.38,69,77,3.62,RU,1689888089
182,laguna,38.421,-121.4238,312.69,26,0,4.12,US,1689888089
183,haiku-pauwela,20.9219,-156.3051,301.62,69,75,7.72,US,1689888090
184,newman,37.3138,-121.0208,310.34,9,0,0.97,US,1689888090
185,esteli,13.0919,-86.3538,302.01,59,27,6.08,NI,1689888091
186,macapa,0.0389,-51.0664,300.14,83,75,7.72,BR,1689888091
187,guilin,25.2819,110.2864,298.21,93,89,0.64,CN,1689888008
188,sao vicente,-23.9631,-46.3919,294.81,54,75,1.54,BR,1689888092
189,minna,9.6139,6.5569,297.78,86,78,1.5,NG,1689888093
190,linxia chengguanzhen,35.6003,103.2064,286.53,68,3,1.93,CN,1689888093
191,pisco,-13.7,-76.2167,294.18,73,0,5.14,PE,1689888094
192,saint-philippe,-21.3585,55.7679,293.92,81,29,2.56,RE,1689888095
193,noshiro,40.2039,140.0242,294.08,90,8,1.44,JP,1689888095
194,pahrump,36.2083,-115.9839,315.28,14,2,2.24,US,1689888095
195,lihue,21.9789,-159.3672,302.92,68,40,7.72,US,1689888096
196,hilvan,37.5869,38.9551,303.64,30,0,5.14,TR,1689888096
197,kudahuvadhoo,2.6708,72.8944,301.48,73,98,3.27,MV,1689888096
198,aykhal,66.0,111.5,287.09,89,100,5.92,RU,1689888097
199,muynoq,43.7683,59.0214,300.25,34,17,3.25,UZ,1689888097
200,heunghae,36.1125,129.3522,295.71,91,0,0.2,KR,1689888097
201,lompoc,34.6391,-120.4579,308.16,72,40,4.12,US,1689887799
202,alaghsas,17.0187,8.0168,307.29,30,41,4.18,NE,1689888098
203,sona,45.4388,10.8255,299.9,73,40,1.54,IT,1689888098
204,uturoa,-16.7333,-151.4333,297.71,64,12,7.93,PF,1689888099
205,baotou,40.6522,109.8222,292.05,73,58,3.15,CN,1689888099
206,saint-francois,46.4154,3.9054,293.84,60,0,0.0,FR,1689888099
207,lae,-6.7221,146.9847,296.23,87,85,2.69,PG,1689888100
208,baruun-urt,46.6806,113.2792,287.66,84,100,5.99,MN,1689888100
209,walvis bay,-22.9575,14.5053,284.68,82,0,1.03,NA,1689888101
210,mahdia,35.5047,11.0622,303.12,67,0,2.97,TN,1689888101
211,port lincoln,-34.7333,135.8667,284.06,71,35,3.07,AU,1689888101
212,kalix,65.853,23.1565,285.32,86,100,5.04,SE,1689888102
213,nalut,30.3333,10.85,306.27,12,0,4.83,LY,1689888103
214,constantia,44.1833,28.65,294.65,83,87,3.26,RO,1689887815
215,takoradi,4.8845,-1.7554,297.78,89,9,3.31,GH,1689888104
216,aasiaat,68.7098,-52.8699,277.72,95,97,5.0,GL,1689888104
217,mejit,10.2753,170.8646,301.47,81,91,8.23,MH,1689888076
218,namibe,-15.1961,12.1522,291.81,76,94,1.32,AO,1689888105
219,aksu,41.1231,80.2644,301.96,26,87,4.06,CN,1689888105
220,pemangkat,1.1667,108.9667,298.5,86,100,3.09,ID,1689888105
221,panguipulli,-39.6333,-72.3333,284.01,97,100,1.85,CL,1689887838
222,dennery,13.8996,-60.8879,304.22,82,20,6.17,LC,1689888106
223,cradock,-32.1642,25.6192,278.51,73,100,5.58,ZA,1689888106
224,argo,37.6333,22.7333,303.59,38,1,1.22,GR,1689888107
225,margate,51.3813,1.3862,289.19,89,94,0.89,GB,1689888107
226,paramonga,-10.6667,-77.8333,294.59,72,14,4.26,PE,1689888107
227,nevinnomyssk,44.6267,41.9453,291.81,60,0,2.43,RU,1689888108
228,susuman,62.7833,148.1667,294.56,57,9,2.31,RU,1689888108
229,cabo san lucas,22.8909,-109.9124,310.71,46,0,5.66,MX,1689887902
230,ola,59.5833,151.2833,288.3,80,17,1.53,RU,1689888109
231,wellington,-41.2866,174.7756,282.96,72,20,9.77,NZ,1689888044
232,jeju city,33.5097,126.5219,297.11,88,0,1.03,KR,1689888109
233,al mijlad,11.0333,27.7333,301.27,61,16,2.21,SD,1689888110
234,punta de bombon,-17.1717,-71.7931,290.99,76,39,2.56,PE,1689888110
235,kindu,-2.95,25.95,297.91,63,89,1.41,CD,1689888111
236,mountain home,43.133,-115.6912,309.86,15,20,4.47,US,1689887852
237,pacocha,-17.5833,-71.3333,290.23,82,100,2.06,PE,1689888112
238,chilliwack,49.1747,-121.9443,306.13,40,6,3.58,CA,1689888112
239,badger,64.8,-147.5333,291.77,89,100,2.06,US,1689887842
240,santo antonio,-6.3106,-35.4789,296.14,74,39,5.7,BR,1689888113
